{"elevation":"0.0","id":"350528","latitude":"51.3908","longitude":"1.4367","name":"Botany Bay (Broadstairs)","region":"se","unitaryAuthArea":"Kent"},

{"elevation":"14.0","id":"354044","latitude":"50.5874","longitude":"-1.23","name":"Ventnor Botanic Gardens","region":"se","unitaryAuthArea":"Isle of Wight"},

{"elevation":"45.0","id":"324065","latitude":"50.237","longitude":"-3.7686","name":"Salcombe","region":"sw","unitaryAuthArea":"Devon"},

{"elevation":"55.0","id":"3815","latitude":"49.96","longitude":"-5.202","name":"Lizard Lighthouse","region":"sw","unitaryAuthArea":"Cornwall"},

{"elevation":"102.0","id":"352207","latitude":"50.1134","longitude":"-5.6913","name":"Land's End Youth Hostel","region":"sw","unitaryAuthArea":"Cornwall"},

{"elevation":"0.0","id":"354466","latitude":"51.3901","longitude":"-3.2745","name":"Whitmore Bay, Barry (Beach)","region":"wl","unitaryAuthArea":"Vale of Glamorgan"},

{"elevation":"0.0","id":"353315","latitude":"51.8931","longitude":"-5.2984","name":"St Davids White Sands","region":"wl","unitaryAuthArea":"Pembrokeshire"},

{"elevation":"29.0","id":"350091","latitude":"53.4104","longitude":"-4.3445","name":"Amlwch","region":"wl","unitaryAuthArea":"Isle of Anglesey"},

{"elevation":"16.0","id":"353074","latitude":"54.0847","longitude":"-4.7573","name":"Port Erin","region":"nw"},

{"elevation":"27.0","id":"353158","latitude":"54.3173","longitude":"-4.3814","name":"Ramsey (Isle Of Man)","region":"nw"},

{"elevation":"25.0","id":"352095","latitude":"54.063","longitude":"-6.0061","name":"Kilkeel","region":"ni","unitaryAuthArea":"County Down"},

{"elevation":"35.0","id":"322472","latitude":"54.9952","longitude":"-7.3227","name":"Londonderry (Derry)","region":"ni","unitaryAuthArea":"County Londonderry"},

{"elevation":"4.0","id":"322002","latitude":"55.2058","longitude":"-6.239","name":"Ballycastle","region":"ni","unitaryAuthArea":"County Antrim"},

{"elevation":"5.0","id":"310184","latitude":"55.4241","longitude":"-5.6042","name":"Campbeltown","region":"st","unitaryAuthArea":"Argyll and Bute"},

{"elevation":"61.0","id":"354200","latitude":"54.7347","longitude":"-4.4136","name":"Whithorn","region":"dg","unitaryAuthArea":"Dumfries and Galloway"},

{"elevation":"3.0","id":"322948","latitude":"54.5496","longitude":"-3.5879","name":"Whitehaven","region":"nw","unitaryAuthArea":"Cumbria"},

{"elevation":"5.0","id":"322675","latitude":"57.4127","longitude":"-6.1949","name":"Portree","region":"he","unitaryAuthArea":"Highland"},

{"elevation":"42.0","id":"352046","latitude":"58.6321","longitude":"-3.1192","name":"John O' Groats Youth Hostel","region":"he","unitaryAuthArea":"Highland"},

{"elevation":"10.0","id":"324209","latitude":"56.0584","longitude":"-2.7182","name":"North Berwick","region":"dg","unitaryAuthArea":"East Lothian"},

{"elevation":"38.0","id":"322753","latitude":"54.2829","longitude":"-0.3981","name":"Scarborough","region":"yh","unitaryAuthArea":"North Yorkshire"},

{"elevation":"15.0","id":"324251","latitude":"52.9311","longitude":"1.3036","name":"Cromer","region":"ee","unitaryAuthArea":"Norfolk"},

{"elevation":"41.0","id":"351195","latitude":"52.9141","longitude":"-1.4415","name":"Derby County F.C.","region":"em","unitaryAuthArea":"Derby"},

{"elevation":"74.0","id":"353472","latitude":"53.4114","longitude":"-1.503","name":"Sheffield Wednesday F.C.","region":"yh","unitaryAuthArea":"South Yorkshire"},